[
  {
    "id": "mnphwnk1uw3ceea7tg",
    "name": "天坛公园",
    "city": "北京",
    "latitude": 39.881913,
    "longitude": 116.410829,
    "description": "天坛公园是北京著名的广场，位于天坛东里甲1号",
    "created_at": "2026-04-08T03:35:35.235Z",
    "checkin_radius": 100,
    "amap_poi_id": "B000A81CB2",
    "score": 30
  },
  {
    "id": "mnphwnk4h4e0s5vx4oe",
    "name": "景山公园",
    "city": "北京",
    "latitude": 39.925875,
    "longitude": 116.396551,
    "description": "景山公园是北京著名的广场，位于景山西街44号",
    "created_at": "2026-04-08T03:35:35.237Z",
    "checkin_radius": 100,
    "amap_poi_id": "B000A7I1OL",
    "score": 25
  },
  {
    "id": "mnphwnk55vixpanmq65",
    "name": "北海公园",
    "city": "北京",
    "latitude": 39.928775,
    "longitude": 116.391802,
    "description": "北海公园是北京著名的广场，位于文津街1号",
    "created_at": "2026-04-08T03:35:35.238Z",
    "checkin_radius": 100,
    "amap_poi_id": "B000A80UL1",
    "score": 25
  },
  {
    "id": "mnphwnk7o62b6zsa7md",
    "name": "地坛公园",
    "city": "北京",
    "latitude": 39.953777,
    "longitude": 116.414443,
    "description": "地坛公园是北京著名的广场，位于安定门外大街",
    "created_at": "2026-04-08T03:35:35.239Z",
    "checkin_radius": 100,
    "amap_poi_id": "B000A81FMM",
    "score": 25
  },
  {
    "id": "mnphwnk741k1361vueh",
    "name": "朝阳公园",
    "city": "北京",
    "latitude": 39.944093,
    "longitude": 116.482276,
    "description": "朝阳公园是北京著名的广场，位于朝阳公园南路1号",
    "created_at": "2026-04-08T03:35:35.239Z",
    "checkin_radius": 100,
    "amap_poi_id": "B000A7CA07",
    "score": 20
  },
  {
    "id": "mnphwnk76ase0whktsq",
    "name": "陶然亭公园",
    "city": "北京",
    "latitude": 39.874496,
    "longitude": 116.381921,
    "description": "陶然亭公园是北京著名的广场，位于太平街19号",
    "created_at": "2026-04-08T03:35:35.240Z",
    "checkin_radius": 100,
    "amap_poi_id": "B000A4D500",
    "score": 20
  },
  {
    "id": "mnphwnk80y2uuvcjvjj",
    "name": "奥林匹克公园中心区",
    "city": "北京",
    "latitude": 40.000039,
    "longitude": 116.392451,
    "description": "奥林匹克公园中心区是北京著名的广场，位于科荟路33号奥林匹克森林公园内",
    "created_at": "2026-04-08T03:35:35.240Z",
    "checkin_radius": 100,
    "amap_poi_id": "B000A87QJV",
    "score": 30
  },
  {
    "id": "mnphwnk85nzls0oakb4",
    "name": "紫竹院公园",
    "city": "北京",
    "latitude": 39.942352,
    "longitude": 116.319079,
    "description": "紫竹院公园是北京著名的广场，位于中关村南大街35号",
    "created_at": "2026-04-08T03:35:35.240Z",
    "checkin_radius": 100,
    "amap_poi_id": "B000A0B593",
    "score": 30
  },
  {
    "id": "mnphwnk80m2kp1wgsnn",
    "name": "南海子公园",
    "city": "北京",
    "latitude": 39.777746,
    "longitude": 116.464223,
    "description": "南海子公园是北京著名的广场，位于黄亦路16号",
    "created_at": "2026-04-08T03:35:35.240Z",
    "checkin_radius": 100,
    "amap_poi_id": "B000A856WS",
    "score": 20
  },
  {
    "id": "mnphwnk94zma5zdc3bl",
    "name": "中山公园",
    "city": "北京",
    "latitude": 39.910707,
    "longitude": 116.394407,
    "description": "中山公园是北京著名的广场，位于中华路4号(天安门西侧)",
    "created_at": "2026-04-08T03:35:35.241Z",
    "checkin_radius": 100,
    "amap_poi_id": "B000A840SB",
    "score": 30
  },
  {
    "id": "mnphwnk925lcg914fam",
    "name": "北小河公园",
    "city": "北京",
    "latitude": 40.005054,
    "longitude": 116.455245,
    "description": "北小河公园是北京著名的广场，位于师家坟村156号",
    "created_at": "2026-04-08T03:35:35.241Z",
    "checkin_radius": 100,
    "amap_poi_id": "B000A81I5K",
    "score": 25
  },
  {
    "id": "mnphwnk9ok56a2vbgd",
    "name": "北京温榆河公园",
    "city": "北京",
    "latitude": 40.075917,
    "longitude": 116.485512,
    "description": "北京温榆河公园是北京著名的广场，位于京承高速与滨河路交叉口",
    "created_at": "2026-04-08T03:35:35.241Z",
    "checkin_radius": 100,
    "amap_poi_id": "B0HAF6QKNJ",
    "score": 20
  },
  {
    "id": "mnphwnk941qs6ozoeq8",
    "name": "北京温榆河公园·故城记忆",
    "city": "北京",
    "latitude": 40.114508,
    "longitude": 116.50027,
    "description": "北京温榆河公园·故城记忆是北京著名的广场，位于机场北线高速与高白路交叉口东南侧",
    "created_at": "2026-04-08T03:35:35.241Z",
    "checkin_radius": 100,
    "amap_poi_id": "B0HB37AZP0",
    "score": 30
  },
  {
    "id": "mnphwnk9gsz39hch0on",
    "name": "日坛公园",
    "city": "北京",
    "latitude": 39.915538,
    "longitude": 116.443795,
    "description": "日坛公园是北京著名的广场，位于朝外街道朝阳门外日坛北路6号",
    "created_at": "2026-04-08T03:35:35.241Z",
    "checkin_radius": 100,
    "amap_poi_id": "B000A7C9EW",
    "score": 25
  },
  {
    "id": "mnphwnka3sj5v13td62",
    "name": "首钢园",
    "city": "北京",
    "latitude": 39.915415,
    "longitude": 116.155232,
    "description": "首钢园是北京著名的广场，位于石景山路68号",
    "created_at": "2026-04-08T03:35:35.242Z",
    "checkin_radius": 100,
    "amap_poi_id": "B0FFFWAIWK",
    "score": 20
  },
  {
    "id": "mnphwnka3dopkb7m14k",
    "name": "莲花池公园",
    "city": "北京",
    "latitude": 39.893297,
    "longitude": 116.315327,
    "description": "莲花池公园是北京著名的广场，位于西三环中路38号",
    "created_at": "2026-04-08T03:35:35.242Z",
    "checkin_radius": 100,
    "amap_poi_id": "B000A5F89F",
    "score": 20
  },
  {
    "id": "mnphwnkauq8e6j9e07",
    "name": "北京明城墙遗址公园",
    "city": "北京",
    "latitude": 39.901264,
    "longitude": 116.427901,
    "description": "北京明城墙遗址公园是北京著名的广场，位于崇文门东大街9号",
    "created_at": "2026-04-08T03:35:35.242Z",
    "checkin_radius": 100,
    "amap_poi_id": "B000A87KTH",
    "score": 30
  },
  {
    "id": "mnphwnka5ran6ybq1kq",
    "name": "白浮泉公园",
    "city": "北京",
    "latitude": 40.212198,
    "longitude": 116.268541,
    "description": "白浮泉公园是北京著名的广场，位于城北街道滨河幼儿园东侧",
    "created_at": "2026-04-08T03:35:35.242Z",
    "checkin_radius": 100,
    "amap_poi_id": "B0FFGK7NDR",
    "score": 25
  },
  {
    "id": "mnphwnka1wlpa1794mk",
    "name": "团结湖公园",
    "city": "北京",
    "latitude": 39.925741,
    "longitude": 116.464372,
    "description": "团结湖公园是北京著名的广场，位于团结湖南里路16号(呼家楼地铁站B东北口步行190米)",
    "created_at": "2026-04-08T03:35:35.242Z",
    "checkin_radius": 100,
    "amap_poi_id": "B000A6B2AE",
    "score": 30
  },
  {
    "id": "mnphwnkaokfk3x2mmef",
    "name": "北京冬奥公园",
    "city": "北京",
    "latitude": 39.901826,
    "longitude": 116.15633,
    "description": "北京冬奥公园是北京著名的广场，位于河堤东路",
    "created_at": "2026-04-08T03:35:35.242Z",
    "checkin_radius": 100,
    "amap_poi_id": "B0H23DR5S6",
    "score": 20
  },
  {
    "id": "mnphwoqj3w53lctzkwl",
    "name": "天安门广场",
    "city": "北京",
    "latitude": 39.903182,
    "longitude": 116.397755,
    "description": "天安门广场是北京著名的广场，位于东长安街",
    "created_at": "2026-04-08T03:35:36.763Z",
    "checkin_radius": 100,
    "amap_poi_id": "B000A83C1S",
    "score": 45
  },
  {
    "id": "mnphwr1c61nkt5mpeto",
    "name": "世界花卉大观园",
    "city": "北京",
    "latitude": 39.835332,
    "longitude": 116.353217,
    "description": "世界花卉大观园是北京著名的广场，位于南四环中路235号",
    "created_at": "2026-04-08T03:35:39.744Z",
    "checkin_radius": 100,
    "amap_poi_id": "B000A7QDJF",
    "score": 30
  },
  {
    "id": "mnphws809sadd8xicbc",
    "name": "北京动物园",
    "city": "北京",
    "latitude": 39.942105,
    "longitude": 116.336701,
    "description": "北京动物园是北京著名的广场，位于西直门外大街137号",
    "created_at": "2026-04-08T03:35:41.280Z",
    "checkin_radius": 100,
    "amap_poi_id": "B000A87IUX",
    "score": 30
  },
  {
    "id": "mnphwtenp8s963b023",
    "name": "北京海洋馆",
    "city": "北京",
    "latitude": 39.944676,
    "longitude": 116.340971,
    "description": "北京海洋馆是北京著名的广场，位于气象路6号",
    "created_at": "2026-04-08T03:35:42.815Z",
    "checkin_radius": 100,
    "amap_poi_id": "B000A7HOIQ",
    "score": 30
  },
  {
    "id": "mnphwujciq8quloyu9",
    "name": "北京动物园-北京海洋馆-动感港湾",
    "city": "北京",
    "latitude": 39.944806,
    "longitude": 116.340531,
    "description": "北京动物园-北京海洋馆-动感港湾是北京著名的广场，位于高粱桥斜街乙18号北京海洋馆内",
    "created_at": "2026-04-08T03:35:44.280Z",
    "checkin_radius": 100,
    "amap_poi_id": "B0FFHHLGF8",
    "score": 40
  },
  {
    "id": "mnphwvqkk2cr89l0bbt",
    "name": "妫河森林公园",
    "city": "北京",
    "latitude": 40.442035,
    "longitude": 115.905388,
    "description": "妫河森林公园是北京著名的广场，位于环湖南路妫水河",
    "created_at": "2026-04-08T03:35:45.836Z",
    "checkin_radius": 100,
    "amap_poi_id": "B000A8Y92X",
    "score": 20
  },
  {
    "id": "mnphwx1b331jc63tsyh",
    "name": "翠湖国家城市湿地公园",
    "city": "北京",
    "latitude": 40.103524,
    "longitude": 116.186404,
    "description": "翠湖国家城市湿地公园是北京著名的广场，位于上庄镇翠湖北路",
    "created_at": "2026-04-08T03:35:47.519Z",
    "checkin_radius": 100,
    "amap_poi_id": "B000A50E4F",
    "score": 40
  },
  {
    "id": "mnphwyes36xbmem1c6o",
    "name": "北京东站",
    "city": "北京",
    "latitude": 39.90242,
    "longitude": 116.485079,
    "description": "北京东站是北京著名的车站，位于百子湾路7号",
    "created_at": "2026-04-08T03:35:49.300Z",
    "checkin_radius": 100,
    "amap_poi_id": "B000A350CB",
    "score": 15
  },
  {
    "id": "mnphx2exffc7p9r84sp",
    "name": "小红门",
    "city": "北京",
    "latitude": 39.832425,
    "longitude": 116.472249,
    "description": "小红门是北京著名的门，位于小红门乡牌坊村",
    "created_at": "2026-04-08T03:35:54.489Z",
    "checkin_radius": 100,
    "amap_poi_id": "B0LUHAFVCO",
    "score": 35
  },
  {
    "id": "mnphx3tgk1l46wadbri",
    "name": "云居寺",
    "city": "北京",
    "latitude": 39.621436,
    "longitude": 115.799629,
    "description": "云居寺是北京著名的寺",
    "created_at": "2026-04-08T03:35:56.308Z",
    "checkin_radius": 100,
    "amap_poi_id": "B000A7BL2W",
    "score": 18
  },
  {
    "id": "mnphx3thxubnmzpi3r",
    "name": "黑山寺",
    "city": "北京",
    "latitude": 40.490619,
    "longitude": 116.795976,
    "description": "黑山寺是北京著名的寺",
    "created_at": "2026-04-08T03:35:56.309Z",
    "checkin_radius": 100,
    "amap_poi_id": "B000AA1325",
    "score": 18
  },

  {
    "id": "mnphxbnjq1kv99z4lap",
    "name": "北京西站",
    "city": "北京",
    "latitude": 39.894912,
    "longitude": 116.322033,
    "description": "北京西站是北京著名的车站，位于莲花池东路118号",
    "created_at": "2026-04-08T03:36:06.463Z",
    "checkin_radius": 100,
    "amap_poi_id": "B000A83M61",
    "score": 15
  },
  {
    "id": "mnphxbnj8ltbufd5xi",
    "name": "北京站",
    "city": "北京",
    "latitude": 39.90283,
    "longitude": 116.427354,
    "description": "北京站是北京著名的车站，位于毛家湾胡同甲13号",
    "created_at": "2026-04-08T03:36:06.463Z",
    "checkin_radius": 100,
    "amap_poi_id": "B000A83C36",
    "score": 20
  },
  {
    "id": "mnphxbnjvcnsgst5g7q",
    "name": "北京南站",
    "city": "北京",
    "latitude": 39.865246,
    "longitude": 116.378517,
    "description": "北京南站是北京著名的车站，位于永外大街车站路12号",
    "created_at": "2026-04-08T03:36:06.463Z",
    "checkin_radius": 100,
    "amap_poi_id": "B000A83AJN",
    "score": 15
  },
  {
    "id": "mnphxbnkapq75zzvyqd",
    "name": "北京北站",
    "city": "北京",
    "latitude": 39.944699,
    "longitude": 116.353464,
    "description": "北京北站是北京著名的车站，位于西直门北大街北滨河路1号",
    "created_at": "2026-04-08T03:36:06.464Z",
    "checkin_radius": 100,
    "amap_poi_id": "B000A833V8",
    "score": 20
  },
  {
    "id": "mnphxdvo93lh7zc2mz",
    "name": "北京首都国际机场",
    "city": "北京",
    "latitude": 40.080213,
    "longitude": 116.602545,
    "description": "北京首都国际机场是北京著名的机场，位于首都机场路",
    "created_at": "2026-04-08T03:36:09.348Z",
    "checkin_radius": 100,
    "amap_poi_id": "B000A28DAE",
    "score": 15
  },
  {
    "id": "mnphxdvox191xxqwehs",
    "name": "北京大兴国际机场",
    "city": "北京",
    "latitude": 39.510561,
    "longitude": 116.429172,
    "description": "北京大兴国际机场是北京著名的机场，位于大安路",
    "created_at": "2026-04-08T03:36:09.348Z",
    "checkin_radius": 100,
    "amap_poi_id": "B0FFJKHNUU",
    "score": 15
  },
  {
    "id": "mnphxdvpt3bud2ww6s",
    "name": "北京海淀机场",
    "city": "北京",
    "latitude": 40.071067,
    "longitude": 116.112841,
    "description": "北京海淀机场是北京著名的机场，位于阳台山路8号",
    "created_at": "2026-04-08T03:36:09.349Z",
    "checkin_radius": 100,
    "amap_poi_id": "B0FFM9JPTA",
    "score": 15
  },
  {
    "id": "mnphxdvpj0v6k0xg75",
    "name": "北京八达岭机场",
    "city": "北京",
    "latitude": 40.379144,
    "longitude": 115.94426,
    "description": "北京八达岭机场是北京著名的机场，位于航空路1号",
    "created_at": "2026-04-08T03:36:09.349Z",
    "checkin_radius": 100,
    "amap_poi_id": "B0FFM9JJQJ",
    "score": 15
  },

  {
    "id": "mnphxdvpzrwuzbmd4k",
    "name": "北京密云穆家峪通用机场",
    "city": "北京",
    "latitude": 40.403538,
    "longitude": 116.888202,
    "description": "北京密云穆家峪通用机场是北京著名的机场，位于双沙路",
    "created_at": "2026-04-08T03:36:09.349Z",
    "checkin_radius": 100,
    "amap_poi_id": "B000AAB0GR",
    "score": 15
  },
  {
    "id": "mnphxdvppk74x2lqkbb",
    "name": "北京定陵机场",
    "city": "北京",
    "latitude": 40.286598,
    "longitude": 116.238896,
    "description": "北京定陵机场是北京著名的陵，位于定陵路8号",
    "created_at": "2026-04-08T03:36:09.349Z",
    "checkin_radius": 100,
    "amap_poi_id": "B000A85XMM",
    "score": 20
  },
  {
    "id": "mnphxdvqe83765ugx1g",
    "name": "北京平谷金海湖机场",
    "city": "北京",
    "latitude": 40.189689,
    "longitude": 117.23845,
    "description": "北京平谷金海湖机场是北京著名的机场，位于金海湖镇胡庄北桥",
    "created_at": "2026-04-08T03:36:09.350Z",
    "checkin_radius": 100,
    "amap_poi_id": "B000AAB0GS",
    "score": 30
  },

  {
    "id": "mnphxgnf6y91zchyq9f",
    "name": "滨东汽车站",
    "city": "北京",
    "latitude": 33.919124,
    "longitude": 120.243856,
    "description": "滨东汽车站是北京著名的车站，位于滨运路与226省道交叉口东南50米",
    "created_at": "2026-04-08T03:36:12.939Z",
    "checkin_radius": 100,
    "amap_poi_id": "B02030J8EH",
    "score": 20
  },
  {
    "id": "mnphxkliyjrn02rfgh",
    "name": "青龙桥站",
    "city": "北京",
    "latitude": 40.350438,
    "longitude": 116.024565,
    "description": "青龙桥站是北京著名的桥，位于八达岭森林公园红叶岭景区北",
    "created_at": "2026-04-08T03:36:18.055Z",
    "checkin_radius": 100,
    "amap_poi_id": "B0FFF3140N",
    "score": 30
  },
  {
    "id": "mnphxvtpetqw68yieq",
    "name": "故宫博物院-珍宝馆",
    "city": "北京",
    "latitude": 39.919701,
    "longitude": 116.399941,
    "description": "故宫博物院-珍宝馆是北京著名的展览馆，位于景山前街4号故宫博物院宁寿宫珍宝馆内",
    "created_at": "2026-04-08T03:36:32.605Z",
    "checkin_radius": 100,
    "amap_poi_id": "B0FFFDODAW",
    "score": 30
  },
  {
    "id": "mnphxvtp2wz6tt3qy6v",
    "name": "故宫博物院-昭仁殿",
    "city": "北京",
    "latitude": 39.920256,
    "longitude": 116.397272,
    "description": "故宫博物院-昭仁殿是北京著名的道观，位于景山前街4号故宫博物院",
    "created_at": "2026-04-08T03:36:32.605Z",
    "checkin_radius": 100,
    "amap_poi_id": "B0FFKQMU05",
    "score": 50
  },
  {
    "id": "mnphxx2gwy68dqah9bq",
    "name": "故宫博物院-钦安殿",
    "city": "北京",
    "latitude": 39.921814,
    "longitude": 116.396866,
    "description": "故宫博物院-钦安殿是北京著名的道观，位于景山前街4号故宫博物院御花园内",
    "created_at": "2026-04-08T03:36:34.216Z",
    "checkin_radius": 100,
    "amap_poi_id": "B000A9PIRP",
    "score": 55
  },
  {
    "id": "mnphxyd7q027x7s6nj9",
    "name": "故宫博物院-钟表馆",
    "city": "北京",
    "latitude": 39.918847,
    "longitude": 116.399152,
    "description": "故宫博物院-钟表馆是北京著名的展览馆，位于景山前街4号故宫博物院",
    "created_at": "2026-04-08T03:36:35.899Z",
    "checkin_radius": 100,
    "amap_poi_id": "B000A9LFO0",
    "score": 30
  },

  {
    "id": "mnphy10uofm2fp2gwtr",
    "name": "故宫博物院-神武门广场",
    "city": "北京",
    "latitude": 39.922481,
    "longitude": 116.39682,
    "description": "故宫博物院-神武门广场是北京著名的广场，位于景山前街4号",
    "created_at": "2026-04-08T03:36:39.342Z",
    "checkin_radius": 100,
    "amap_poi_id": "B0FFFTBKWE",
    "score": 50
  },

  {
    "id": "mnphy3isdp51vvz8gi",
    "name": "故宫博物院-养性殿",
    "city": "北京",
    "latitude": 39.920925,
    "longitude": 116.400352,
    "description": "故宫博物院-养性殿是北京著名的道观，位于景山前街4号故宫博物院内(东北角)",
    "created_at": "2026-04-08T03:36:42.580Z",
    "checkin_radius": 100,
    "amap_poi_id": "B000A9PIJH",
    "score": 50
  },

  {
    "id": "mnphy67yd89ul1kgng",
    "name": "喜剧部落-保利影城天安门店(脱口秀厅)",
    "city": "北京",
    "latitude": 39.898281,
    "longitude": 116.397428,
    "description": "喜剧部落-保利影城天安门店(脱口秀厅)是北京著名的院，位于煤市街廊房头条交叉口东北角北京坊东区B1-B2层",
    "created_at": "2026-04-08T03:36:46.078Z",
    "checkin_radius": 100,
    "amap_poi_id": "B0JB6KCUC6",
    "score": 45
  },

  {
    "id": "mnphy8rf2iai8z99j2j",
    "name": "北平花园(天安门店)",
    "city": "北京",
    "latitude": 39.898039,
    "longitude": 116.395566,
    "description": "北平花园(天安门店)是北京著名的园，位于廊房头条21号院5号楼4F层01号",
    "created_at": "2026-04-08T03:36:49.371Z",
    "checkin_radius": 100,
    "amap_poi_id": "B0FFHXSH3E",
    "score": 40
  },

  {
    "id": "mnphyjtl0hgtl0m1qui",
    "name": "北京圆明园花园",
    "city": "北京",
    "latitude": 40.020887,
    "longitude": 116.290735,
    "description": "北京圆明园花园是北京著名的园，位于圆明园西路1-5号",
    "created_at": "2026-04-08T03:37:03.705Z",
    "checkin_radius": 100,
    "amap_poi_id": "B000A81I49",
    "score": 25
  },


  {
    "id": "mnphys54bxb5yv5r1t8",
    "name": "北京孔庙",
    "city": "北京",
    "latitude": 39.946442,
    "longitude": 116.414629,
    "description": "北京孔庙是北京著名的道观，位于国子监街13号",
    "created_at": "2026-04-08T03:37:14.488Z",
    "checkin_radius": 100,
    "amap_poi_id": "B000A3DC74",
    "score": 30
  },
  {
    "id": "mnphytaa53hgg8e2hmv",
    "name": "北京恭王府博物馆",
    "city": "北京",
    "latitude": 39.935707,
    "longitude": 116.38648,
    "description": "北京恭王府博物馆是北京著名的博物馆，位于前海西街17号恭王府(北海北地铁站B东北口步行410米)",
    "created_at": "2026-04-08T03:37:15.970Z",
    "checkin_radius": 100,
    "amap_poi_id": "B000A9QRC6",
    "score": 15
  },
  {
    "id": "mnphyufsyelezql78cm",
    "name": "什刹海西海湿地公园",
    "city": "北京",
    "latitude": 39.948043,
    "longitude": 116.374248,
    "description": "什刹海西海湿地公园是北京著名的广场，位于北京市什刹海街道德胜门西大街甲60号",
    "created_at": "2026-04-08T03:37:17.464Z",
    "checkin_radius": 100,
    "amap_poi_id": "B000A7HUYQ",
    "score": 30
  },
  {
    "id": "mnphyvm2k7nlpj7ammg",
    "name": "南锣鼓巷",
    "city": "北京",
    "latitude": 39.933416,
    "longitude": 116.402556,
    "description": "南锣鼓巷是北京著名的胡同",
    "created_at": "2026-04-08T03:37:18.986Z",
    "checkin_radius": 100,
    "amap_poi_id": "BV11488966",
    "score": 30
  },
  {
    "id": "mnphyws3pxmz2ta2j9e",
    "name": "前门大街",
    "city": "北京",
    "latitude": 39.896152,
    "longitude": 116.403895,
    "description": "前门大街是北京著名的门，位于小江胡同1号(前门地铁站G东南口步行320米)",
    "created_at": "2026-04-08T03:37:20.499Z",
    "checkin_radius": 100,
    "amap_poi_id": "B000A8UR3U",
    "score": 25
  },
  {
    "id": "mnphyxykfx0yv54kw3n",
    "name": "北京大栅栏",
    "city": "北京",
    "latitude": 39.895715,
    "longitude": 116.395042,
    "description": "北京大栅栏是北京著名的商业街，位于煤市街",
    "created_at": "2026-04-08T03:37:22.028Z",
    "checkin_radius": 100,
    "amap_poi_id": "B000A84KJP",
    "score": 20
  },
  {
    "id": "mnphz0atjpa9fpd0hed",
    "name": "潘家园旧货市场",
    "city": "北京",
    "latitude": 39.875426,
    "longitude": 116.458263,
    "description": "潘家园旧货市场是北京著名的园，位于潘家园路华威里18号(潘家园桥西南)",
    "created_at": "2026-04-08T03:37:25.061Z",
    "checkin_radius": 100,
    "amap_poi_id": "B0FFIPP0IM",
    "score": 30
  },
  {
    "id": "mnphz1g5vf30ypze7fp",
    "name": "798艺术区中心广场",
    "city": "北京",
    "latitude": 39.985127,
    "longitude": 116.496361,
    "description": "798艺术区中心广场是北京著名的广场，位于酒仙桥路4号798艺术区",
    "created_at": "2026-04-08T03:37:26.549Z",
    "checkin_radius": 100,
    "amap_poi_id": "B0JGUCHA7Y",
    "score": 45
  },
  {
    "id": "mnphz2mkkw5r0c6l0w",
    "name": "国家大剧院",
    "city": "北京",
    "latitude": 39.904909,
    "longitude": 116.389814,
    "description": "国家大剧院是北京著名的院，位于西长安街2号(天安门西地铁站出入口旁)",
    "created_at": "2026-04-08T03:37:28.076Z",
    "checkin_radius": 100,
    "amap_poi_id": "B000A68732",
    "score": 30
  },
  {
    "id": "mnphz3tlbq9knnw2l3i",
    "name": "国家体育场",
    "city": "北京",
    "latitude": 39.99333,
    "longitude": 116.395784,
    "description": "国家体育场是北京的重要地标，位于国家体育场南路1号奥林匹克公园",
    "created_at": "2026-04-08T03:37:29.625Z",
    "checkin_radius": 100,
    "amap_poi_id": "B000A7GWO5",
    "score": 25
  },
  {
    "id": "mnphz4zwun0oc2ai69",
    "name": "国家游泳中心",
    "city": "北京",
    "latitude": 39.992834,
    "longitude": 116.390397,
    "description": "国家游泳中心是北京著名的中心，位于天辰东路11号",
    "created_at": "2026-04-08T03:37:31.149Z",
    "checkin_radius": 100,
    "amap_poi_id": "B000A80ZU6",
    "score": 20
  },
  {"id": "cucx9kf7d2pz5bqy1",
  "name": "中国传媒大学",
  "city": "北京",
  "latitude": 39.913668,
  "longitude": 116.554716,
  "description": "中国传媒大学是教育部直属信息传播领域知名高校，位于北京市朝阳区定福庄东街 1 号",
  "created_at": "2026-04-21T00:00:00.000Z",
  "checkin_radius": 200,
  "amap_poi_id": "B0FFFJZJ8C",
  "score": 30
  }
]